<?xml version="1.0" encoding="UTF-8"?>
<countries xsi:noNamespaceSchemaLocation="file:///C:/Users/Christian/Dropbox/Web%20Data%20Integration/City_Country_Input/targetschema.xsd" xmlns:xsi="http://www.w3.org/2001/XMLSchema-instance">
	<country id="dbpedia1_country_1">
		<country_name>Spain</country_name>
		<cities>
			<city id="dbpedia1_city_1">
				<city_name>Los Palacios y Villafranca</city_name>
				<city_population>35225</city_population>
				<city_population_density>309</city_population_density>
				<city_latitude>37.16249847412109</city_latitude>
				<city_longtitude>-5.924166679382324</city_longtitude>
				<city_elevation>8.0</city_elevation>
			</city>
			<city id="dbpedia1_city_2">
				<city_name>La Rinconada</city_name>
				<city_population>33370</city_population>
				<city_population_density>238.4</city_population_density>
				<city_latitude>37.48333358764648</city_latitude>
				<city_longtitude>-5.966666698455811</city_longtitude>
				<city_elevation>13.0</city_elevation>
			</city>
			<city id="dbpedia1_city_3">
				<city_name>Pontevedra</city_name>
				<city_population>82946</city_population>
				<city_population_density>701.0042344169053</city_population_density>
				<city_latitude>42.4334774017334</city_latitude>
				<city_longtitude>-8.640693187713623</city_longtitude>
				<city_elevation>20.0</city_elevation>
			</city>
			<city id="dbpedia1_city_4">
				<city_name>Burgos</city_name>
				<city_population>179906</city_population>
				<city_population_density>1680</city_population_density>
				<city_latitude>42.34999847412109</city_latitude>
				<city_longtitude>-3.706666707992554</city_longtitude>
				<city_elevation>859.0</city_elevation>
			</city>
			<city id="dbpedia1_city_5">
				<city_name>La Carolina</city_name>
				<city_population>15576</city_population>
				<city_population_density>77.5</city_population_density>
				<city_latitude>38.26666641235352</city_latitude>
				<city_longtitude>-3.616666555404663</city_longtitude>
				<city_elevation>595.0</city_elevation>
			</city>
			<city id="dbpedia1_city_6">
				<city_name>Camas</city_name>
				<city_population>25706</city_population>
				<city_population_density>2142.2</city_population_density>
				<city_latitude>37.40000152587891</city_latitude>
				<city_longtitude>-6.033333301544189</city_longtitude>
				<city_elevation>13.0</city_elevation>
			</city>
			<city id="dbpedia1_city_7">
				<city_name>Bormujos</city_name>
				<city_population>15741</city_population>
				<city_population_density>1311.8</city_population_density>
				<city_latitude>37.36666488647461</city_latitude>
				<city_longtitude>-6.066666603088379</city_longtitude>
				<city_elevation>98.0</city_elevation>
			</city>
			<city id="dbpedia1_city_8">
				<city_name>Santiago de Compostela</city_name>
				<city_population>95671</city_population>
				<city_population_density>428.81</city_population_density>
				<city_latitude>42.87777709960938</city_latitude>
				<city_longtitude>-8.54444408416748</city_longtitude>
				<city_elevation>260.0</city_elevation>
			</city>
			<city id="dbpedia1_city_9">
				<city_name>Barcelona</city_name>
				<city_population>1620943</city_population>
				<city_population_density>15991</city_population_density>
				<city_latitude>41.38333511352539</city_latitude>
				<city_longtitude>2.183333396911621</city_longtitude>
				<city_elevation>12.0</city_elevation>
			</city>
			<city id="dbpedia1_city_10">
				<city_name>La Puebla de Cazalla</city_name>
				<city_population>1072923</city_population>
				<city_population_density>57.1</city_population_density>
				<city_latitude>37.21666717529297</city_latitude>
				<city_longtitude>-5.300000190734863</city_longtitude>
				<city_elevation>177.0</city_elevation>
			</city>
			<city id="dbpedia1_city_11">
				<city_name>Albolote</city_name>
				<city_population>15563</city_population>
				<city_population_density>197</city_population_density>
				<city_latitude>37.23055648803711</city_latitude>
				<city_longtitude>-3.656944513320923</city_longtitude>
				<city_elevation>655.0</city_elevation>
			</city>
			<city id="dbpedia1_city_12">
				<city_name>San Juan de Aznalfarache</city_name>
				<city_population>20121</city_population>
				<city_population_density>5030.3</city_population_density>
				<city_latitude>37.36666488647461</city_latitude>
				<city_longtitude>-6.016666889190674</city_longtitude>
				<city_elevation>49.0</city_elevation>
			</city>
			<city id="dbpedia1_city_13">
				<city_name>Maracena</city_name>
				<city_population>18819</city_population>
				<city_population_density>3763.8</city_population_density>
				<city_latitude>37.20000076293945</city_latitude>
				<city_longtitude>-3.633333444595337</city_longtitude>
				<city_elevation>660.0</city_elevation>
			</city>
		</cities>
	</country>
	<country id="dbpedia1_country_2">
		<country_name>United States</country_name>
		<cities>
			<city id="dbpedia1_city_14">
				<city_name>Shaker Heights</city_name>
				<city_population>28448</city_population>
				<city_population_density>1749.002083990713</city_population_density>
				<city_latitude>41.47638702392578</city_latitude>
				<city_longtitude>-81.55166625976562</city_longtitude>
				<city_elevation>320.0</city_elevation>
			</city>
			<city id="dbpedia1_city_15">
				<city_name>North Port</city_name>
				<city_population>57357</city_population>
				<city_population_density>435.93327133439545</city_population_density>
				<city_latitude>27.066057205200195</city_latitude>
				<city_longtitude>-82.1719856262207</city_longtitude>
				<city_elevation>3.0</city_elevation>
			</city>
			<city id="dbpedia1_city_16">
				<city_name>Jefferson City</city_name>
				<city_population>43079</city_population>
				<city_population_density>462.68310829070645</city_population_density>
				<city_latitude>38.613056182861325</city_latitude>
				<city_longtitude>-92.19403076171875</city_longtitude>
				<city_elevation>192.024</city_elevation>
			</city>
			<city id="dbpedia1_city_17">
				<city_name>Coeur d'Alene</city_name>
				<city_population>44137</city_population>
				<city_population_density>1094.4918944101355</city_population_density>
				<city_latitude>47.69277954101562</city_latitude>
				<city_longtitude>-116.7799987792969</city_longtitude>
				<city_elevation>667.0</city_elevation>
			</city>
			<city id="dbpedia1_city_18">
				<city_name>New Braunfels</city_name>
				<city_population>60761</city_population>
				<city_population_density>619.6311515827501</city_population_density>
				<city_latitude>29.70000076293945</city_latitude>
				<city_longtitude>-98.11666870117188</city_longtitude>
				<city_elevation>192.024</city_elevation>
			</city>
			<city id="dbpedia1_city_19">
				<city_name>Statesville</city_name>
				<city_population>24633</city_population>
				<city_population_density>450.1504805925284</city_population_density>
				<city_latitude>35.78666687011719</city_latitude>
				<city_longtitude>-80.87860870361328</city_longtitude>
				<city_elevation>280.0</city_elevation>
			</city>
			<city id="dbpedia1_city_20">
				<city_name>Marysville</city_name>
				<city_population>60020</city_population>
				<city_population_density>1120.5921473688705</city_population_density>
				<city_latitude>48.06277847290039</city_latitude>
				<city_longtitude>-122.163330078125</city_longtitude>
				<city_elevation>6.0</city_elevation>
			</city>
			<city id="dbpedia1_city_21">
				<city_name>Frankfort</city_name>
				<city_population>16422</city_population>
				<city_population_density>1004.8154338033575</city_population_density>
				<city_latitude>40.28222274780273</city_latitude>
				<city_longtitude>-86.51139068603516</city_longtitude>
				<city_elevation>259.0</city_elevation>
			</city>
			<city id="dbpedia1_city_22">
				<city_name>St. Louis Park</city_name>
				<city_population>45250</city_population>
				<city_population_density>1642.007629924657</city_population_density>
				<city_latitude>44.94833374023438</city_latitude>
				<city_longtitude>-93.34805297851562</city_longtitude>
				<city_elevation>274.0</city_elevation>
			</city>
			<city id="dbpedia1_city_23">
				<city_name>Pullman</city_name>
				<city_population>29799</city_population>
				<city_population_density>1164.5113601899355</city_population_density>
				<city_latitude>46.73296737670898</city_latitude>
				<city_longtitude>-117.16923141479495</city_longtitude>
				<city_elevation>717.0</city_elevation>
			</city>
			<city id="dbpedia1_city_24">
				<city_name>Pascagoula</city_name>
				<city_population>22392</city_population>
				<city_population_density>596.377815315497</city_population_density>
				<city_latitude>30.36361122131348</city_latitude>
				<city_longtitude>-88.54194641113281</city_longtitude>
				<city_elevation>3.0</city_elevation>
			</city>
			<city id="dbpedia1_city_25">
				<city_name>Newport News</city_name>
				<city_population>183412</city_population>
				<city_population_density>1012.745961856836</city_population_density>
				<city_latitude>37.07083511352539</city_latitude>
				<city_longtitude>-76.48444366455078</city_longtitude>
				<city_elevation>4.5</city_elevation>
			</city>
			<city id="dbpedia1_city_26">
				<city_name>Flint</city_name>
				<city_population>102434</city_population>
				<city_population_density>1183.4208630742255</city_population_density>
				<city_latitude>43.0099983215332</city_latitude>
				<city_longtitude>-83.69000244140625</city_longtitude>
				<city_elevation>229.0</city_elevation>
			</city>
			<city id="dbpedia1_city_27">
				<city_name>Clayton</city_name>
				<city_population>15939</city_population>
				<city_population_density>2481.48928647615</city_population_density>
				<city_latitude>38.64527893066406</city_latitude>
				<city_longtitude>-90.33194732666016</city_longtitude>
				<city_elevation>173.0</city_elevation>
			</city>
			<city id="dbpedia1_city_28">
				<city_name>Urbandale</city_name>
				<city_population>39463</city_population>
				<city_population_density>695.0998580119827</city_population_density>
				<city_latitude>41.63639068603516</city_latitude>
				<city_longtitude>-93.73611450195312</city_longtitude>
				<city_elevation>288.036</city_elevation>
			</city>
			<city id="dbpedia1_city_29">
				<city_name>San Marcos</city_name>
				<city_population>54076</city_population>
				<city_population_density>736.4449337098578</city_population_density>
				<city_latitude>29.87944412231445</city_latitude>
				<city_longtitude>-97.93888854980469</city_longtitude>
				<city_elevation>188.062</city_elevation>
			</city>
			<city id="dbpedia1_city_30">
				<city_name>Missoula</city_name>
				<city_population>66788</city_population>
				<city_population_density>106.44855015823949</city_population_density>
				<city_latitude>46.86249923706055</city_latitude>
				<city_longtitude>-114.0116653442383</city_longtitude>
				<city_elevation>978.103</city_elevation>
			</city>
			<city id="dbpedia1_city_31">
				<city_name>Scottsbluff</city_name>
				<city_population>15039</city_population>
				<city_population_density>933.50889946196285</city_population_density>
				<city_latitude>41.86722183227539</city_latitude>
				<city_longtitude>-103.6608352661133</city_longtitude>
				<city_elevation>1185.98</city_elevation>
			</city>
			<city id="dbpedia1_city_32">
				<city_name>Camas</city_name>
				<city_population>19355</city_population>
				<city_population_density>553.98968853835065</city_population_density>
				<city_latitude>45.59111022949219</city_latitude>
				<city_longtitude>-122.412223815918</city_longtitude>
				<city_elevation>23.0</city_elevation>
			</city>
			<city id="dbpedia1_city_33">
				<city_name>Burnsville</city_name>
				<city_population>60306</city_population>
				<city_population_density>934.7766629156308</city_population_density>
				<city_latitude>44.76777648925781</city_latitude>
				<city_longtitude>-93.27749633789062</city_longtitude>
				<city_elevation>295.961</city_elevation>
			</city>
			<city id="dbpedia1_city_34">
				<city_name>Champlin</city_name>
				<city_population>23089</city_population>
				<city_population_density>1091.181655128403</city_population_density>
				<city_latitude>45.18888854980469</city_latitude>
				<city_longtitude>-93.39749908447266</city_longtitude>
				<city_elevation>259.994</city_elevation>
			</city>
			<city id="dbpedia1_city_35">
				<city_name>Fairborn</city_name>
				<city_population>32352</city_population>
				<city_population_density>949.1967732803745</city_population_density>
				<city_latitude>39.80777740478516</city_latitude>
				<city_longtitude>-84.02194213867188</city_longtitude>
				<city_elevation>255.118</city_elevation>
			</city>
			<city id="dbpedia1_city_36">
				<city_name>Caldwell</city_name>
				<city_population>46237</city_population>
				<city_population_density>809.28506215248335</city_population_density>
				<city_latitude>43.65833282470703</city_latitude>
				<city_longtitude>-116.6802749633789</city_longtitude>
				<city_elevation>724.0</city_elevation>
			</city>
			<city id="dbpedia1_city_37">
				<city_name>Madison</city_name>
				<city_population>233209</city_population>
				<city_population_density>1172.596127746704</city_population_density>
				<city_latitude>43.06666564941406</city_latitude>
				<city_longtitude>-89.40000152587891</city_longtitude>
				<city_elevation>266.09</city_elevation>
			</city>
			<city id="dbpedia1_city_38">
				<city_name>Woodbury</city_name>
				<city_population>61961</city_population>
				<city_population_density>688.8224305277889</city_population_density>
				<city_latitude>44.91888809204102</city_latitude>
				<city_longtitude>-92.93666839599609</city_longtitude>
				<city_elevation>324.002</city_elevation>
			</city>
			<city id="dbpedia1_city_39">
				<city_name>Middletown</city_name>
				<city_population>48694</city_population>
				<city_population_density>717.88987168898485</city_population_density>
				<city_latitude>39.5</city_latitude>
				<city_longtitude>-84.38333129882812</city_longtitude>
				<city_elevation>200.0</city_elevation>
			</city>
			<city id="dbpedia1_city_40">
				<city_name>Independence</city_name>
				<city_population>116830</city_population>
				<city_population_density>581.50423049038885</city_population_density>
				<city_latitude>39.0797233581543</city_latitude>
				<city_longtitude>-94.40666961669922</city_longtitude>
				<city_elevation>315.0</city_elevation>
			</city>
			<city id="dbpedia1_city_41">
				<city_name>Poplar Bluff</city_name>
				<city_population>17023</city_population>
				<city_population_density>509.1071531270346</city_population_density>
				<city_latitude>36.75694274902344</city_latitude>
				<city_longtitude>-90.39277648925781</city_longtitude>
				<city_elevation>110.033</city_elevation>
			</city>
			<city id="dbpedia1_city_42">
				<city_name>Mission</city_name>
				<city_population>80452</city_population>
				<city_population_density>726.6028260805145</city_population_density>
				<city_latitude>26.21138954162598</city_latitude>
				<city_longtitude>-98.32138824462891</city_longtitude>
				<city_elevation>43.0</city_elevation>
			</city>
			<city id="dbpedia1_city_43">
				<city_name>Bentonville</city_name>
				<city_population>40167</city_population>
				<city_population_density>472.4</city_population_density>
				<city_latitude>36.36666488647461</city_latitude>
				<city_longtitude>-94.21333312988281</city_longtitude>
				<city_elevation>395.021</city_elevation>
			</city>
			<city id="dbpedia1_city_44">
				<city_name>Northfield</city_name>
				<city_population>20007</city_population>
				<city_population_density>902.4182875806294</city_population_density>
				<city_latitude>44.45833206176758</city_latitude>
				<city_longtitude>-93.16110992431641</city_longtitude>
				<city_elevation>277.978</city_elevation>
			</city>
			<city id="dbpedia1_city_45">
				<city_name>Painesville</city_name>
				<city_population>19563</city_population>
				<city_population_density>1200.8774667493575</city_population_density>
				<city_latitude>41.7227783203125</city_latitude>
				<city_longtitude>-81.24972534179688</city_longtitude>
				<city_elevation>206.0</city_elevation>
			</city>
			<city id="dbpedia1_city_46">
				<city_name>Norman</city_name>
				<city_population>110925</city_population>
				<city_population_density>255.2760685062055</city_population_density>
				<city_latitude>35.230289459228515</city_latitude>
				<city_longtitude>-97.392654418945315</city_longtitude>
				<city_elevation>357.0</city_elevation>
			</city>
			<city id="dbpedia1_city_47">
				<city_name>Lakewood</city_name>
				<city_population>52131</city_population>
				<city_population_density>3639.7232191818915</city_population_density>
				<city_latitude>41.4808349609375</city_latitude>
				<city_longtitude>-81.80027770996094</city_longtitude>
				<city_elevation>214.884</city_elevation>
			</city>
			<city id="dbpedia1_city_48">
				<city_name>Cortland</city_name>
				<city_population>19204</city_population>
				<city_population_density>1904.1</city_population_density>
				<city_latitude>42.60055541992188</city_latitude>
				<city_longtitude>-76.18138885498047</city_longtitude>
				<city_elevation>344.0</city_elevation>
			</city>
			<city id="dbpedia1_city_49">
				<city_name>Everett</city_name>
				<city_population>41667</city_population>
				<city_population_density>4733.290976468837</city_population_density>
				<city_latitude>42.40833282470703</city_latitude>
				<city_longtitude>-71.05416870117188</city_longtitude>
				<city_elevation>3.0</city_elevation>
			</city>
			<city id="dbpedia1_city_50">
				<city_name>College Park</city_name>
				<city_population>30413</city_population>
				<city_population_density>2082.0086398621425</city_population_density>
				<city_latitude>38.99666595458984</city_latitude>
				<city_longtitude>-76.92749786376953</city_longtitude>
				<city_elevation>21.0</city_elevation>
			</city>
			<city id="dbpedia1_city_51">
				<city_name>Kyle</city_name>
				<city_population>30875</city_population>
				<city_population_density>347.1029202648294</city_population_density>
				<city_latitude>29.989123344421385</city_latitude>
				<city_longtitude>-97.875888824462895</city_longtitude>
				<city_elevation>221.894</city_elevation>
			</city>
			<city id="dbpedia1_city_52">
				<city_name>Cuyahoga Falls</city_name>
				<city_population>49267</city_population>
				<city_population_density>747.4082792532334</city_population_density>
				<city_latitude>41.14555740356445</city_latitude>
				<city_longtitude>-81.49666595458984</city_longtitude>
				<city_elevation>312.0</city_elevation>
			</city>
			<city id="dbpedia1_city_53">
				<city_name>Allen Park</city_name>
				<city_population>28210</city_population>
				<city_population_density>1555.9958494630285</city_population_density>
				<city_latitude>42.262645721435545</city_latitude>
				<city_longtitude>-83.209674835205075</city_longtitude>
				<city_elevation>181.051</city_elevation>
			</city>
			<city id="dbpedia1_city_54">
				<city_name>Cumberland</city_name>
				<city_population>20859</city_population>
				<city_population_density>798.98059833594165</city_population_density>
				<city_latitude>39.64773178100586</city_latitude>
				<city_longtitude>-78.76282501220703</city_longtitude>
				<city_elevation>191.11</city_elevation>
			</city>
			<city id="dbpedia1_city_55">
				<city_name>Red Wing</city_name>
				<city_population>16459</city_population>
				<city_population_density>183.68439840932075</city_population_density>
				<city_latitude>44.56666564941406</city_latitude>
				<city_longtitude>-92.53333282470703</city_longtitude>
				<city_elevation>228.6</city_elevation>
			</city>
			<city id="dbpedia1_city_56">
				<city_name>Chickasha</city_name>
				<city_population>16036</city_population>
				<city_population_density>342.3239511263764</city_population_density>
				<city_latitude>35.03833389282227</city_latitude>
				<city_longtitude>-97.94611358642578</city_longtitude>
				<city_elevation>333.0</city_elevation>
			</city>
			<city id="dbpedia1_city_57">
				<city_name>Tyler</city_name>
				<city_population>96900</city_population>
				<city_population_density>688.0170232613193</city_population_density>
				<city_latitude>32.34212303161621</city_latitude>
				<city_longtitude>-95.299964904785155</city_longtitude>
				<city_elevation>165.811</city_elevation>
			</city>
			<city id="dbpedia1_city_58">
				<city_name>Newport</city_name>
				<city_population>24672</city_population>
				<city_population_density>1239.8</city_population_density>
				<city_latitude>41.48805618286133</city_latitude>
				<city_longtitude>-71.3125</city_longtitude>
				<city_elevation>9.0</city_elevation>
			</city>
			<city id="dbpedia1_city_59">
				<city_name>Pembroke Pines</city_name>
				<city_population>154750</city_population>
				<city_population_density>1795.3</city_population_density>
				<city_latitude>26.012706756591795</city_latitude>
				<city_longtitude>-80.31365203857422</city_longtitude>
				<city_elevation>2.0</city_elevation>
			</city>
			<city id="dbpedia1_city_60">
				<city_name>Syracuse</city_name>
				<city_population>144669</city_population>
				<city_population_density>2194.6007011108735</city_population_density>
				<city_latitude>43.04694366455078</city_latitude>
				<city_longtitude>-76.14444732666016</city_longtitude>
				<city_elevation>115.824</city_elevation>
			</city>
			<city id="dbpedia1_city_61">
				<city_name>Coon Rapids</city_name>
				<city_population>61476</city_population>
				<city_population_density>1049.805884538455</city_population_density>
				<city_latitude>45.11999893188477</city_latitude>
				<city_longtitude>-93.28749847412109</city_longtitude>
				<city_elevation>259.0</city_elevation>
			</city>
			<city id="dbpedia1_city_62">
				<city_name>Minot</city_name>
				<city_population>40888</city_population>
				<city_population_density>905.70922175443475</city_population_density>
				<city_latitude>48.23305511474609</city_latitude>
				<city_longtitude>-101.2922210693359</city_longtitude>
				<city_elevation>494.0</city_elevation>
			</city>
			<city id="dbpedia1_city_63">
				<city_name>Pittsfield</city_name>
				<city_population>44737</city_population>
				<city_population_density>426.8</city_population_density>
				<city_latitude>42.45000076293945</city_latitude>
				<city_longtitude>-73.25</city_longtitude>
				<city_elevation>316.687</city_elevation>
			</city>
			<city id="dbpedia1_city_64">
				<city_name>Beaumont</city_name>
				<city_population>118296</city_population>
				<city_population_density>517.145231151752</city_population_density>
				<city_latitude>30.07999992370605</city_latitude>
				<city_longtitude>-94.12666320800781</city_longtitude>
				<city_elevation>4.8768</city_elevation>
			</city>
			<city id="dbpedia1_city_65">
				<city_name>Eau Claire</city_name>
				<city_population>65883</city_population>
				<city_population_density>793.92093430541575</city_population_density>
				<city_latitude>44.81666564941406</city_latitude>
				<city_longtitude>-91.5</city_longtitude>
				<city_elevation>240.0</city_elevation>
			</city>
			<city id="dbpedia1_city_66">
				<city_name>Clinton</city_name>
				<city_population>20805</city_population>
				<city_population_density>882.7033774298699</city_population_density>
				<city_latitude>41.13944625854492</city_latitude>
				<city_longtitude>-112.053337097168</city_longtitude>
				<city_elevation>1339.0</city_elevation>
			</city>
			<city id="dbpedia1_city_67">
				<city_name>Keizer</city_name>
				<city_population>36478</city_population>
				<city_population_density>1986.497802850442</city_population_density>
				<city_latitude>45.00055694580078</city_latitude>
				<city_longtitude>-123.0219421386719</city_longtitude>
				<city_elevation>40.2336</city_elevation>
			</city>
			<city id="dbpedia1_city_68">
				<city_name>Daphne</city_name>
				<city_population>23633</city_population>
				<city_population_density>454.1780692229582</city_population_density>
				<city_latitude>30.63111114501953</city_latitude>
				<city_longtitude>-87.88639068603516</city_longtitude>
				<city_elevation>48.0</city_elevation>
			</city>
			<city id="dbpedia1_city_69">
				<city_name>Madison Heights</city_name>
				<city_population>29694</city_population>
				<city_population_density>1617.086530203736</city_population_density>
				<city_latitude>42.48583221435547</city_latitude>
				<city_longtitude>-83.10527801513672</city_longtitude>
				<city_elevation>192.938</city_elevation>
			</city>
			<city id="dbpedia1_city_70">
				<city_name>Port Arthur</city_name>
				<city_population>57755</city_population>
				<city_population_density>268.9100767124068</city_population_density>
				<city_latitude>29.88500022888184</city_latitude>
				<city_longtitude>-93.94000244140625</city_longtitude>
				<city_elevation>2.1336</city_elevation>
			</city>
			<city id="dbpedia1_city_71">
				<city_name>Aiken</city_name>
				<city_population>29494</city_population>
				<city_population_density>550.8</city_population_density>
				<city_latitude>33.54944610595703</city_latitude>
				<city_longtitude>-81.72055816650391</city_longtitude>
				<city_elevation>156.972</city_elevation>
			</city>
			<city id="dbpedia1_city_72">
				<city_name>Camas</city_name>
				<city_population>19355</city_population>
				<city_population_density>553.98968853835065</city_population_density>
				<city_latitude>45.59111022949219</city_latitude>
				<city_longtitude>-122.412223815918</city_longtitude>
				<city_elevation>22.86</city_elevation>
			</city>
			<city id="dbpedia1_city_73">
				<city_name>Englewood</city_name>
				<city_population>27147</city_population>
				<city_population_density>2133.0799925417985</city_population_density>
				<city_latitude>40.89119720458984</city_latitude>
				<city_longtitude>-73.97251129150391</city_longtitude>
				<city_elevation>13.1064</city_elevation>
			</city>
			<city id="dbpedia1_city_74">
				<city_name>Cambridge</city_name>
				<city_population>105162</city_population>
				<city_population_density>6315.3491658621315</city_population_density>
				<city_latitude>42.37361145019531</city_latitude>
				<city_longtitude>-71.11055755615234</city_longtitude>
				<city_elevation>12.0</city_elevation>
			</city>
			<city id="dbpedia1_city_75">
				<city_name>Springfield</city_name>
				<city_population>159498</city_population>
				<city_population_density>753.59709652157295</city_population_density>
				<city_latitude>37.19499969482422</city_latitude>
				<city_longtitude>-93.28610992431641</city_longtitude>
				<city_elevation>396.0</city_elevation>
			</city>
			<city id="dbpedia1_city_76">
				<city_name>Niles</city_name>
				<city_population>19266</city_population>
				<city_population_density>863.9210949772885</city_population_density>
				<city_latitude>41.18527603149414</city_latitude>
				<city_longtitude>-80.75722503662109</city_longtitude>
				<city_elevation>268.0</city_elevation>
			</city>
			<city id="dbpedia1_city_77">
				<city_name>McDonough</city_name>
				<city_population>22084</city_population>
				<city_population_density>670.70694512582275</city_population_density>
				<city_latitude>33.44499969482422</city_latitude>
				<city_longtitude>-84.149169921875</city_longtitude>
				<city_elevation>263.0</city_elevation>
			</city>
			<city id="dbpedia1_city_78">
				<city_name>Fort Smith</city_name>
				<city_population>86209</city_population>
				<city_population_density>537.17266148212535</city_population_density>
				<city_latitude>35.36861038208008</city_latitude>
				<city_longtitude>-94.39861297607422</city_longtitude>
				<city_elevation>141.122</city_elevation>
			</city>
			<city id="dbpedia1_city_79">
				<city_name>Springfield</city_name>
				<city_population>159498</city_population>
				<city_population_density>753.59709652157295</city_population_density>
				<city_latitude>37.19499969482422</city_latitude>
				<city_longtitude>-93.28610992431641</city_longtitude>
				<city_elevation>395.935</city_elevation>
			</city>
			<city id="dbpedia1_city_80">
				<city_name>Bristol</city_name>
				<city_population>26675</city_population>
				<city_population_density>350.7789901941247</city_population_density>
				<city_latitude>36.582084655761715</city_latitude>
				<city_longtitude>-82.193058013916015</city_longtitude>
				<city_elevation>511.0</city_elevation>
			</city>
			<city id="dbpedia1_city_81">
				<city_name>Neenah</city_name>
				<city_population>25501</city_population>
				<city_population_density>1066.711521810535</city_population_density>
				<city_latitude>44.174028396606445</city_latitude>
				<city_longtitude>-88.46847152709961</city_longtitude>
			</city>
			<city id="dbpedia1_city_82">
				<city_name>Ridgeland</city_name>
				<city_population>24258</city_population>
				<city_population_density>522.00505917469345</city_population_density>
				<city_latitude>32.41888809204102</city_latitude>
				<city_longtitude>-90.125</city_longtitude>
				<city_elevation>109.0</city_elevation>
			</city>
			<city id="dbpedia1_city_83">
				<city_name>Marco Island</city_name>
				<city_population>16413</city_population>
				<city_population_density>522</city_population_density>
				<city_latitude>25.94055557250977</city_latitude>
				<city_longtitude>-81.7147216796875</city_longtitude>
				<city_elevation>0.0</city_elevation>
			</city>
			<city id="dbpedia1_city_84">
				<city_name>Arlington</city_name>
				<city_population>17926</city_population>
				<city_population_density>748.213686519703</city_population_density>
				<city_latitude>48.18111038208008</city_latitude>
				<city_longtitude>-122.1388854980469</city_longtitude>
				<city_elevation>35.0</city_elevation>
			</city>
			<city id="dbpedia1_city_85">
				<city_name>Columbia Heights</city_name>
				<city_population>19496</city_population>
				<city_population_density>2207.480935517363</city_population_density>
				<city_latitude>45.037208557128905</city_latitude>
				<city_longtitude>-93.257083892822265</city_longtitude>
				<city_elevation>281.026</city_elevation>
			</city>
			<city id="dbpedia1_city_86">
				<city_name>Burlington</city_name>
				<city_population>25663</city_population>
				<city_population_density>684.29442779238845</city_population_density>
				<city_latitude>40.80805587768555</city_latitude>
				<city_longtitude>-91.11583709716797</city_longtitude>
				<city_elevation>185.0</city_elevation>
			</city>
			<city id="dbpedia1_city_87">
				<city_name>Troutdale</city_name>
				<city_population>15962</city_population>
				<city_population_density>1037.5168602176305</city_population_density>
				<city_latitude>45.52944564819336</city_latitude>
				<city_longtitude>-122.3916702270508</city_longtitude>
				<city_elevation>9.1</city_elevation>
			</city>
			<city id="dbpedia1_city_88">
				<city_name>South Burlington</city_name>
				<city_population>17904</city_population>
				<city_population_density>366.88713552351605</city_population_density>
				<city_latitude>44.45194625854492</city_latitude>
				<city_longtitude>-73.18166351318359</city_longtitude>
				<city_elevation>99.9744</city_elevation>
			</city>
			<city id="dbpedia1_city_89">
				<city_name>Aberdeen</city_name>
				<city_population>26091</city_population>
				<city_population_density>649.91288173724955</city_population_density>
				<city_latitude>45.4647216796875</city_latitude>
				<city_longtitude>-98.48638916015625</city_longtitude>
				<city_elevation>396.85</city_elevation>
			</city>
			<city id="dbpedia1_city_90">
				<city_name>Tamarac</city_name>
				<city_population>60427</city_population>
				<city_population_density>2008.3</city_population_density>
				<city_latitude>26.20805549621582</city_latitude>
				<city_longtitude>-80.24819564819336</city_longtitude>
				<city_elevation>3.0</city_elevation>
			</city>
			<city id="dbpedia1_city_91">
				<city_name>Hillsboro</city_name>
				<city_population>91611</city_population>
				<city_population_density>1479.9840919545245</city_population_density>
				<city_latitude>45.52277755737305</city_latitude>
				<city_longtitude>-122.9897232055664</city_longtitude>
				<city_elevation>60.0</city_elevation>
			</city>
			<city id="dbpedia1_city_92">
				<city_name>Goldsboro</city_name>
				<city_population>36437</city_population>
				<city_population_density>608.08614474424905</city_population_density>
				<city_latitude>35.38194274902344</city_latitude>
				<city_longtitude>-77.97805786132812</city_longtitude>
				<city_elevation>32.9184</city_elevation>
			</city>
			<city id="dbpedia1_city_93">
				<city_name>Plymouth</city_name>
				<city_population>70576</city_population>
				<city_population_density>833.8131107941331</city_population_density>
				<city_latitude>45.01055526733398</city_latitude>
				<city_longtitude>-93.45555877685547</city_longtitude>
				<city_elevation>295.961</city_elevation>
			</city>
			<city id="dbpedia1_city_94">
				<city_name>Shoreline</city_name>
				<city_population>53007</city_population>
				<city_population_density>1753.776612265749</city_population_density>
				<city_latitude>47.75638961791992</city_latitude>
				<city_longtitude>-122.3397216796875</city_longtitude>
				<city_elevation>145.085</city_elevation>
			</city>
			<city id="dbpedia1_city_95">
				<city_name>Renton</city_name>
				<city_population>90927</city_population>
				<city_population_density>1518.4812845578655</city_population_density>
				<city_latitude>47.486644744873045</city_latitude>
				<city_longtitude>-122.19521713256835</city_longtitude>
				<city_elevation>14.0208</city_elevation>
			</city>
			<city id="dbpedia1_city_96">
				<city_name>Syracuse</city_name>
				<city_population>144669</city_population>
				<city_population_density>2194.6007011108735</city_population_density>
				<city_latitude>43.04694366455078</city_latitude>
				<city_longtitude>-76.14444732666016</city_longtitude>
				<city_elevation>116.0</city_elevation>
			</city>
			<city id="dbpedia1_city_97">
				<city_name>Hoover</city_name>
				<city_population>84126</city_population>
				<city_population_density>588.33423030064355</city_population_density>
				<city_latitude>33.38641357421875</city_latitude>
				<city_longtitude>-86.804969787597655</city_longtitude>
				<city_elevation>166.0</city_elevation>
			</city>
			<city id="dbpedia1_city_98">
				<city_name>Galveston</city_name>
				<city_population>47743</city_population>
				<city_population_density>478.9</city_population_density>
				<city_latitude>29.2811107635498</city_latitude>
				<city_longtitude>-94.82583618164062</city_longtitude>
				<city_elevation>2.1336</city_elevation>
			</city>
			<city id="dbpedia1_city_99">
				<city_name>Centerville</city_name>
				<city_population>23999</city_population>
				<city_population_density>859.58961778152365</city_population_density>
				<city_latitude>39.63861083984375</city_latitude>
				<city_longtitude>-84.14805603027344</city_longtitude>
				<city_elevation>310.896</city_elevation>
			</city>
			<city id="dbpedia1_city_100">
				<city_name>Weirton</city_name>
				<city_population>19746</city_population>
				<city_population_density>422.3978807227179</city_population_density>
				<city_latitude>40.41666793823242</city_latitude>
				<city_longtitude>-80.58333587646484</city_longtitude>
				<city_elevation>230.124</city_elevation>
			</city>
			<city id="dbpedia1_city_101">
				<city_name>Camden</city_name>
				<city_population>77344</city_population>
				<city_population_density>3347.3756368497945</city_population_density>
				<city_latitude>39.938392639160155</city_latitude>
				<city_longtitude>-75.1058235168457</city_longtitude>
				<city_elevation>4.8768</city_elevation>
			</city>
			<city id="dbpedia1_city_102">
				<city_name>Murray</city_name>
				<city_population>17741</city_population>
				<city_population_density>609.4</city_population_density>
				<city_latitude>36.60944366455078</city_latitude>
				<city_longtitude>-88.3155517578125</city_longtitude>
				<city_elevation>163.0</city_elevation>
			</city>
			<city id="dbpedia1_city_103">
				<city_name>DeKalb</city_name>
				<city_population>43862</city_population>
				<city_population_density>1342.730112051054</city_population_density>
				<city_latitude>41.93138885498047</city_latitude>
				<city_longtitude>-88.75027465820312</city_longtitude>
				<city_elevation>268.0</city_elevation>
			</city>
			<city id="dbpedia1_city_104">
				<city_name>Oak Park</city_name>
				<city_population>29319</city_population>
				<city_population_density>2193.816232419089</city_population_density>
				<city_latitude>42.46722412109375</city_latitude>
				<city_longtitude>-83.179443359375</city_longtitude>
				<city_elevation>203.0</city_elevation>
			</city>
			<city id="dbpedia1_city_105">
				<city_name>Providence</city_name>
				<city_population>177994</city_population>
				<city_population_density>3841.716477497337</city_population_density>
				<city_latitude>41.82361221313477</city_latitude>
				<city_longtitude>-71.42222595214844</city_longtitude>
				<city_elevation>22.86</city_elevation>
			</city>
			<city id="dbpedia1_city_106">
				<city_name>Bowling Green</city_name>
				<city_population>30028</city_population>
				<city_population_density>923.09652032163985</city_population_density>
				<city_latitude>41.3738899230957</city_latitude>
				<city_longtitude>-83.65083312988281</city_longtitude>
				<city_elevation>212.0</city_elevation>
			</city>
			<city id="dbpedia1_city_107">
				<city_name>Muscatine</city_name>
				<city_population>22886</city_population>
				<city_population_density>510.78727276790085</city_population_density>
				<city_latitude>41.42388916015625</city_latitude>
				<city_longtitude>-91.05611419677734</city_longtitude>
				<city_elevation>177.089</city_elevation>
			</city>
			<city id="dbpedia1_city_108">
				<city_name>Council Bluffs</city_name>
				<city_population>62230</city_population>
				<city_population_density>586.47528430506055</city_population_density>
				<city_latitude>41.251806259155275</city_latitude>
				<city_longtitude>-95.864585876464845</city_longtitude>
				<city_elevation>332.0</city_elevation>
			</city>
			<city id="dbpedia1_city_109">
				<city_name>Sunny Isles Beach</city_name>
				<city_population>20832</city_population>
				<city_population_density>7922.391580916593</city_population_density>
				<city_latitude>25.9416675567627</city_latitude>
				<city_longtitude>-80.125</city_longtitude>
			</city>
			<city id="dbpedia1_city_110">
				<city_name>Blaine</city_name>
				<city_population>57186</city_population>
				<city_population_density>652.29049332080405</city_population_density>
				<city_latitude>45.16083145141602</city_latitude>
				<city_longtitude>-93.23472595214844</city_longtitude>
				<city_elevation>274.93</city_elevation>
			</city>
			<city id="dbpedia1_city_111">
				<city_name>Portland</city_name>
				<city_population>66194</city_population>
				<city_population_density>1199.698313511544</city_population_density>
				<city_latitude>43.66666793823242</city_latitude>
				<city_longtitude>-70.26667022705078</city_longtitude>
				<city_elevation>18.8976</city_elevation>
			</city>
			<city id="dbpedia1_city_112">
				<city_name>Belle Glade</city_name>
				<city_population>17467</city_population>
				<city_population_density>1200.430221124318</city_population_density>
				<city_latitude>26.685271263122555</city_latitude>
				<city_longtitude>-80.671329498291015</city_longtitude>
				<city_elevation>5.0</city_elevation>
			</city>
			<city id="dbpedia1_city_113">
				<city_name>Opelika</city_name>
				<city_population>28635</city_population>
				<city_population_density>173.24132437692485</city_population_density>
				<city_latitude>32.64720153808594</city_latitude>
				<city_longtitude>-85.38942337036133</city_longtitude>
				<city_elevation>245.974</city_elevation>
			</city>
			<city id="dbpedia1_city_114">
				<city_name>Bullhead City</city_name>
				<city_population>39540</city_population>
				<city_population_density>257.10271368670735</city_population_density>
				<city_latitude>35.11833381652832</city_latitude>
				<city_longtitude>-114.5883331298828</city_longtitude>
				<city_elevation>165.0</city_elevation>
			</city>
			<city id="dbpedia1_city_115">
				<city_name>Centralia</city_name>
				<city_population>16336</city_population>
				<city_population_density>850.02125612352445</city_population_density>
				<city_latitude>46.72055435180664</city_latitude>
				<city_longtitude>-122.9613876342773</city_longtitude>
				<city_elevation>56.9976</city_elevation>
			</city>
			<city id="dbpedia1_city_116">
				<city_name>Lufkin</city_name>
				<city_population>35067</city_population>
				<city_population_density>405.7</city_population_density>
				<city_latitude>31.33694458007812</city_latitude>
				<city_longtitude>-94.73027801513672</city_longtitude>
				<city_elevation>95.0</city_elevation>
			</city>
			<city id="dbpedia1_city_117">
				<city_name>Fort Lauderdale</city_name>
				<city_population>170747</city_population>
				<city_population_density>1838.3</city_population_density>
				<city_latitude>26.13333320617676</city_latitude>
				<city_longtitude>-80.15000152587891</city_longtitude>
				<city_elevation>2.7432</city_elevation>
			</city>
			<city id="dbpedia1_city_118">
				<city_name>Lumberton</city_name>
				<city_population>21924</city_population>
				<city_population_density>510.5907472282652</city_population_density>
				<city_latitude>34.62723159790039</city_latitude>
				<city_longtitude>-79.01194763183594</city_longtitude>
				<city_elevation>40.0</city_elevation>
			</city>
			<city id="dbpedia1_city_119">
				<city_name>Columbus</city_name>
				<city_population>787033</city_population>
				<city_population_density>1399.217111278912</city_population_density>
				<city_latitude>39.98333358764648</city_latitude>
				<city_longtitude>-82.98332977294922</city_longtitude>
				<city_elevation>275.0</city_elevation>
			</city>
			<city id="dbpedia1_city_120">
				<city_name>Manchester</city_name>
				<city_population>18094</city_population>
				<city_population_density>1375.209334148242</city_population_density>
				<city_latitude>38.58416748046875</city_latitude>
				<city_longtitude>-90.50749969482422</city_longtitude>
				<city_elevation>176.0</city_elevation>
			</city>
			<city id="dbpedia1_city_121">
				<city_name>Copperas Cove</city_name>
				<city_population>33122</city_population>
				<city_population_density>686.1</city_population_density>
				<city_latitude>31.11972236633301</city_latitude>
				<city_longtitude>-97.90166473388672</city_longtitude>
				<city_elevation>333.0</city_elevation>
			</city>
			<city id="dbpedia1_city_122">
				<city_name>San Luis</city_name>
				<city_population>25505</city_population>
				<city_population_density>194.06194160786445</city_population_density>
				<city_latitude>32.49611282348633</city_latitude>
				<city_longtitude>-114.7683334350586</city_longtitude>
				<city_elevation>39.624</city_elevation>
			</city>
			<city id="dbpedia1_city_123">
				<city_name>Huntington</city_name>
				<city_population>17391</city_population>
				<city_population_density>770.91508998085085</city_population_density>
				<city_latitude>40.882013320922855</city_latitude>
				<city_longtitude>-85.495574951171875</city_longtitude>
				<city_elevation>228.0</city_elevation>
			</city>
			<city id="dbpedia1_city_124">
				<city_name>Portage</city_name>
				<city_population>36828</city_population>
				<city_population_density>554.79509580482025</city_population_density>
				<city_latitude>41.58189582824707</city_latitude>
				<city_longtitude>-87.186611175537105</city_longtitude>
				<city_elevation>193.853</city_elevation>
			</city>
			<city id="dbpedia1_city_125">
				<city_name>Vandalia</city_name>
				<city_population>15246</city_population>
				<city_population_density>477.01460843959595</city_population_density>
				<city_latitude>39.87972259521484</city_latitude>
				<city_longtitude>-84.19361114501953</city_longtitude>
				<city_elevation>302.971</city_elevation>
			</city>
			<city id="dbpedia1_city_126">
				<city_name>Long Beach</city_name>
				<city_population>33275</city_population>
				<city_population_density>6398.1</city_population_density>
				<city_latitude>40.58705139160156</city_latitude>
				<city_longtitude>-73.677902221679685</city_longtitude>
				<city_elevation>0.0</city_elevation>
			</city>
			<city id="dbpedia1_city_127">
				<city_name>Columbia</city_name>
				<city_population>108500</city_population>
				<city_population_density>664.04785634650345</city_population_density>
				<city_latitude>38.95155334472656</city_latitude>
				<city_longtitude>-92.32859802246094</city_longtitude>
				<city_elevation>231.038</city_elevation>
			</city>
			<city id="dbpedia1_city_128">
				<city_name>Fairborn</city_name>
				<city_population>32352</city_population>
				<city_population_density>949.1967732803745</city_population_density>
				<city_latitude>39.80777740478516</city_latitude>
				<city_longtitude>-84.02194213867188</city_longtitude>
				<city_elevation>255.0</city_elevation>
			</city>
			<city id="dbpedia1_city_129">
				<city_name>Asheboro</city_name>
				<city_population>25012</city_population>
				<city_population_density>545.38464947060245</city_population_density>
				<city_latitude>35.71527862548828</city_latitude>
				<city_longtitude>-79.81305694580078</city_longtitude>
				<city_elevation>255.118</city_elevation>
			</city>
			<city id="dbpedia1_city_130">
				<city_name>Austin</city_name>
				<city_population>885400</city_population>
				<city_population_density>1065.035777188239</city_population_density>
				<city_latitude>30.25</city_latitude>
				<city_longtitude>-97.75</city_longtitude>
				<city_elevation>149.047</city_elevation>
			</city>
			<city id="dbpedia1_city_131">
				<city_name>Federal Way</city_name>
				<city_population>89306</city_population>
				<city_population_density>1549.0016249282195</city_population_density>
				<city_latitude>47.31486129760742</city_latitude>
				<city_longtitude>-122.3445816040039</city_longtitude>
				<city_elevation>157.0</city_elevation>
			</city>
			<city id="dbpedia1_city_132">
				<city_name>Westfield</city_name>
				<city_population>30068</city_population>
				<city_population_density>432.5751241075511</city_population_density>
				<city_latitude>40.03222274780273</city_latitude>
				<city_longtitude>-86.12889099121094</city_longtitude>
				<city_elevation>270.0</city_elevation>
			</city>
			<city id="dbpedia1_city_133">
				<city_name>Tukwila</city_name>
				<city_population>19107</city_population>
				<city_population_density>804.49122876952015</city_population_density>
				<city_latitude>47.478288650512695</city_latitude>
				<city_longtitude>-122.2754936218262</city_longtitude>
				<city_elevation>42.0</city_elevation>
			</city>
			<city id="dbpedia1_city_134">
				<city_name>Mount Clemens</city_name>
				<city_population>16314</city_population>
				<city_population_density>1547.67594615077</city_population_density>
				<city_latitude>42.59694480895996</city_latitude>
				<city_longtitude>-82.87916564941406</city_longtitude>
				<city_elevation>184.099</city_elevation>
			</city>
			<city id="dbpedia1_city_135">
				<city_name>Beacon</city_name>
				<city_population>15541</city_population>
				<city_population_density>1679.439247210986</city_population_density>
				<city_latitude>41.50416564941406</city_latitude>
				<city_longtitude>-73.96555328369141</city_longtitude>
				<city_elevation>42.0</city_elevation>
			</city>
			<city id="dbpedia1_city_136">
				<city_name>Enterprise</city_name>
				<city_population>27775</city_population>
				<city_population_density>328.3</city_population_density>
				<city_latitude>31.32749938964844</city_latitude>
				<city_longtitude>-85.84444427490234</city_longtitude>
				<city_elevation>109.0</city_elevation>
			</city>
			<city id="dbpedia1_city_137">
				<city_name>Willoughby</city_name>
				<city_population>22268</city_population>
				<city_population_density>838.8034697167319</city_population_density>
				<city_latitude>41.6458740234375</city_latitude>
				<city_longtitude>-81.40970230102539</city_longtitude>
				<city_elevation>201.0</city_elevation>
			</city>
			<city id="dbpedia1_city_138">
				<city_name>New Brighton</city_name>
				<city_population>21456</city_population>
				<city_population_density>1282.39985469144</city_population_density>
				<city_latitude>45.049999237060545</city_latitude>
				<city_longtitude>-93.19999694824219</city_longtitude>
				<city_elevation>268.0</city_elevation>
			</city>
			<city id="dbpedia1_city_139">
				<city_name>Fishers</city_name>
				<city_population>76794</city_population>
				<city_population_density>882.7033774298699</city_population_density>
				<city_latitude>39.95611190795898</city_latitude>
				<city_longtitude>-86.01277923583984</city_longtitude>
				<city_elevation>249.022</city_elevation>
			</city>
			<city id="dbpedia1_city_140">
				<city_name>Bay City</city_name>
				<city_population>18667</city_population>
				<city_population_density>847.8901700796056</city_population_density>
				<city_latitude>28.98083305358887</city_latitude>
				<city_longtitude>-95.96444702148438</city_longtitude>
				<city_elevation>15.8496</city_elevation>
			</city>
			<city id="dbpedia1_city_141">
				<city_name>Olathe</city_name>
				<city_population>125872</city_population>
				<city_population_density>814.5991670464262</city_population_density>
				<city_latitude>38.88083267211914</city_latitude>
				<city_longtitude>-94.80305480957031</city_longtitude>
				<city_elevation>315.0</city_elevation>
			</city>
			<city id="dbpedia1_city_142">
				<city_name>Birmingham</city_name>
				<city_population>20103</city_population>
				<city_population_density>1620.4160745933955</city_population_density>
				<city_latitude>42.54666519165039</city_latitude>
				<city_longtitude>-83.21138763427734</city_longtitude>
				<city_elevation>237.134</city_elevation>
			</city>
			<city id="dbpedia1_city_143">
				<city_name>Muncie</city_name>
				<city_population>70085</city_population>
				<city_population_density>994.88471595816015</city_population_density>
				<city_latitude>40.19333267211914</city_latitude>
				<city_longtitude>-85.38805389404297</city_longtitude>
				<city_elevation>284.074</city_elevation>
			</city>
			<city id="dbpedia1_city_144">
				<city_name>Prichard</city_name>
				<city_population>22399</city_population>
				<city_population_density>346.1</city_population_density>
				<city_latitude>30.74805641174316</city_latitude>
				<city_longtitude>-88.10028076171875</city_longtitude>
				<city_elevation>9.0</city_elevation>
			</city>
			<city id="dbpedia1_city_145">
				<city_name>Columbia Heights</city_name>
				<city_population>19496</city_population>
				<city_population_density>2207.480935517363</city_population_density>
				<city_latitude>45.037208557128905</city_latitude>
				<city_longtitude>-93.257083892822265</city_longtitude>
				<city_elevation>281.0</city_elevation>
			</city>
			<city id="dbpedia1_city_146">
				<city_name>Taylor</city_name>
				<city_population>63131</city_population>
				<city_population_density>1032.8116370505215</city_population_density>
				<city_latitude>42.2408332824707</city_latitude>
				<city_longtitude>-83.26972198486328</city_longtitude>
				<city_elevation>187.0</city_elevation>
			</city>
			<city id="dbpedia1_city_147">
				<city_name>Marlborough</city_name>
				<city_population>38499</city_population>
				<city_population_density>696.8641470052862</city_population_density>
				<city_latitude>42.34833335876465</city_latitude>
				<city_longtitude>-71.550140380859375</city_longtitude>
				<city_elevation>137.16</city_elevation>
			</city>
			<city id="dbpedia1_city_148">
				<city_name>Wichita Falls</city_name>
				<city_population>104553</city_population>
				<city_population_density>569.12659595370975</city_population_density>
				<city_latitude>33.89694595336914</city_latitude>
				<city_longtitude>-98.51499938964844</city_longtitude>
				<city_elevation>288.95</city_elevation>
			</city>
			<city id="dbpedia1_city_149">
				<city_name>Middletown</city_name>
				<city_population>47648</city_population>
				<city_population_density>450</city_population_density>
				<city_latitude>41.56222152709961</city_latitude>
				<city_longtitude>-72.65083312988281</city_longtitude>
				<city_elevation>12.0</city_elevation>
			</city>
			<city id="dbpedia1_city_150">
				<city_name>Wenatchee</city_name>
				<city_population>31925</city_population>
				<city_population_density>1586.408274509601</city_population_density>
				<city_latitude>47.42333221435547</city_latitude>
				<city_longtitude>-120.3252792358398</city_longtitude>
				<city_elevation>237.0</city_elevation>
			</city>
			<city id="dbpedia1_city_151">
				<city_name>San Angelo</city_name>
				<city_population>100103</city_population>
				<city_population_density>633</city_population_density>
				<city_latitude>31.451528549194335</city_latitude>
				<city_longtitude>-100.4512481689453</city_longtitude>
				<city_elevation>562.0</city_elevation>
			</city>
			<city id="dbpedia1_city_152">
				<city_name>Brooklyn</city_name>
				<city_population>2592149</city_population>
				<city_population_density>14182.30448758112</city_population_density>
				<city_latitude>40.658750534057615</city_latitude>
				<city_longtitude>-73.97125244140625</city_longtitude>
			</city>
			<city id="dbpedia1_city_153">
				<city_name>Mentor</city_name>
				<city_population>47159</city_population>
				<city_population_density>683.22318987835615</city_population_density>
				<city_latitude>41.69111251831055</city_latitude>
				<city_longtitude>-81.34194183349609</city_longtitude>
				<city_elevation>210.922</city_elevation>
			</city>
			<city id="dbpedia1_city_154">
				<city_name>Adrian</city_name>
				<city_population>21133</city_population>
				<city_population_density>1026.318378918765</city_population_density>
				<city_latitude>41.89694404602051</city_latitude>
				<city_longtitude>-84.03750228881836</city_longtitude>
				<city_elevation>240.0</city_elevation>
			</city>
			<city id="dbpedia1_city_155">
				<city_name>Bozeman</city_name>
				<city_population>37280</city_population>
				<city_population_density>752.8109943630305</city_population_density>
				<city_latitude>45.66611099243164</city_latitude>
				<city_longtitude>-110.9951400756836</city_longtitude>
				<city_elevation>1461.0</city_elevation>
			</city>
			<city id="dbpedia1_city_156">
				<city_name>Maplewood</city_name>
				<city_population>38018</city_population>
				<city_population_density>864.49136648826815</city_population_density>
				<city_latitude>44.972917556762695</city_latitude>
				<city_longtitude>-93.00958251953125</city_longtitude>
				<city_elevation>298.0</city_elevation>
			</city>
			<city id="dbpedia1_city_157">
				<city_name>Allen Park</city_name>
				<city_population>28210</city_population>
				<city_population_density>1555.9958494630285</city_population_density>
				<city_latitude>42.262645721435545</city_latitude>
				<city_longtitude>-83.209674835205075</city_longtitude>
				<city_elevation>181.0</city_elevation>
			</city>
			<city id="dbpedia1_city_158">
				<city_name>Jenks</city_name>
				<city_population>18670</city_population>
				<city_population_density>407.7537714278954</city_population_density>
				<city_latitude>36.01027679443359</city_latitude>
				<city_longtitude>-95.97972106933594</city_longtitude>
				<city_elevation>188.062</city_elevation>
			</city>
			<city id="dbpedia1_city_159">
				<city_name>York</city_name>
				<city_population>43550</city_population>
				<city_population_density>3120.401670765635</city_population_density>
				<city_latitude>39.9647216796875</city_latitude>
				<city_longtitude>-76.73902893066406</city_longtitude>
			</city>
			<city id="dbpedia1_city_160">
				<city_name>Las Vegas</city_name>
				<city_population>583736</city_population>
				<city_population_density>1659.505687631287</city_population_density>
				<city_latitude>36.17499923706055</city_latitude>
				<city_longtitude>-115.1363906860352</city_longtitude>
				<city_elevation>610.0</city_elevation>
			</city>
			<city id="dbpedia1_city_161">
				<city_name>Gainesville</city_name>
				<city_population>127488</city_population>
				<city_population_density>789.3</city_population_density>
				<city_latitude>29.65199661254883</city_latitude>
				<city_longtitude>-82.32498931884766</city_longtitude>
				<city_elevation>46.0248</city_elevation>
			</city>
			<city id="dbpedia1_city_162">
				<city_name>Lincoln Park</city_name>
				<city_population>38144</city_population>
				<city_population_density>2500.418094468367</city_population_density>
				<city_latitude>42.24361038208008</city_latitude>
				<city_longtitude>-83.18083190917969</city_longtitude>
				<city_elevation>179.0</city_elevation>
			</city>
			<city id="dbpedia1_city_163">
				<city_name>Henderson</city_name>
				<city_population>15368</city_population>
				<city_population_density>716.48407327066925</city_population_density>
				<city_latitude>36.32472229003906</city_latitude>
				<city_longtitude>-78.40860748291016</city_longtitude>
				<city_elevation>154.0</city_elevation>
			</city>
			<city id="dbpedia1_city_164">
				<city_name>Bellaire</city_name>
				<city_population>16855</city_population>
				<city_population_density>1667.937611372412</city_population_density>
				<city_latitude>29.70462512969971</city_latitude>
				<city_longtitude>-95.463539123535155</city_longtitude>
				<city_elevation>13.1</city_elevation>
			</city>
			<city id="dbpedia1_city_165">
				<city_name>Griffin</city_name>
				<city_population>23643</city_population>
				<city_population_density>620.2786435254383</city_population_density>
				<city_latitude>33.24750137329102</city_latitude>
				<city_longtitude>-84.27083587646484</city_longtitude>
				<city_elevation>298.094</city_elevation>
			</city>
			<city id="dbpedia1_city_166">
				<city_name>Tullahoma</city_name>
				<city_population>18579</city_population>
				<city_population_density>312.5941537779821</city_population_density>
				<city_latitude>35.36861038208008</city_latitude>
				<city_longtitude>-86.21333312988281</city_longtitude>
				<city_elevation>326.136</city_elevation>
			</city>
			<city id="dbpedia1_city_167">
				<city_name>South St. Paul</city_name>
				<city_population>20160</city_population>
				<city_population_density>1377.6755559476505</city_population_density>
				<city_latitude>44.88999938964844</city_latitude>
				<city_longtitude>-93.04083251953125</city_longtitude>
				<city_elevation>219.0</city_elevation>
			</city>
			<city id="dbpedia1_city_168">
				<city_name>Fredericksburg</city_name>
				<city_population>24286</city_population>
				<city_population_density>901.5485401966112</city_population_density>
				<city_latitude>38.30180740356445</city_latitude>
				<city_longtitude>-77.47083282470703</city_longtitude>
				<city_elevation>18.0</city_elevation>
			</city>
			<city id="dbpedia1_city_169">
				<city_name>Mountlake Terrace</city_name>
				<city_population>19909</city_population>
				<city_population_density>1893.314577422296</city_population_density>
				<city_latitude>47.79090118408203</city_latitude>
				<city_longtitude>-122.30664825439455</city_longtitude>
				<city_elevation>138.989</city_elevation>
			</city>
			<city id="dbpedia1_city_170">
				<city_name>Siloam Springs</city_name>
				<city_population>15039</city_population>
				<city_population_density>524.7</city_population_density>
				<city_latitude>36.18333435058594</city_latitude>
				<city_longtitude>-94.53944396972656</city_longtitude>
				<city_elevation>345.034</city_elevation>
			</city>
			<city id="dbpedia1_city_171">
				<city_name>Washington</city_name>
				<city_population>20888</city_population>
				<city_population_density>220.4821662638683</city_population_density>
				<city_latitude>37.11944580078125</city_latitude>
				<city_longtitude>-113.5033340454102</city_longtitude>
				<city_elevation>851.0</city_elevation>
			</city>
			<city id="dbpedia1_city_172">
				<city_name>Kerrville</city_name>
				<city_population>22347</city_population>
				<city_population_density>472.00494440907005</city_population_density>
				<city_latitude>30.046944618225095</city_latitude>
				<city_longtitude>-99.14057159423828</city_longtitude>
				<city_elevation>499.0</city_elevation>
			</city>
			<city id="dbpedia1_city_173">
				<city_name>Greenfield</city_name>
				<city_population>20602</city_population>
				<city_population_density>633.8126517316396</city_population_density>
				<city_latitude>39.79138946533203</city_latitude>
				<city_longtitude>-85.77138519287109</city_longtitude>
				<city_elevation>269.0</city_elevation>
			</city>
			<city id="dbpedia1_city_174">
				<city_name>Jackson</city_name>
				<city_population>67685</city_population>
				<city_population_density>508.6</city_population_density>
				<city_latitude>35.633056640625</city_latitude>
				<city_longtitude>-88.82083129882812</city_longtitude>
				<city_elevation>124.968</city_elevation>
			</city>
			<city id="dbpedia1_city_175">
				<city_name>Bremerton</city_name>
				<city_population>37729</city_population>
				<city_population_density>512.72183327218405</city_population_density>
				<city_latitude>47.56999969482422</city_latitude>
				<city_longtitude>-122.6524963378906</city_longtitude>
				<city_elevation>11.8872</city_elevation>
			</city>
			<city id="dbpedia1_city_176">
				<city_name>North Tonawanda</city_name>
				<city_population>31568</city_population>
				<city_population_density>1206.72368630856</city_population_density>
				<city_latitude>43.04111099243164</city_latitude>
				<city_longtitude>-78.86888885498047</city_longtitude>
				<city_elevation>174.955</city_elevation>
			</city>
			<city id="dbpedia1_city_177">
				<city_name>Aberdeen</city_name>
				<city_population>26091</city_population>
				<city_population_density>649.91288173724955</city_population_density>
				<city_latitude>45.4647216796875</city_latitude>
				<city_longtitude>-98.48638916015625</city_longtitude>
				<city_elevation>397.0</city_elevation>
			</city>
			<city id="dbpedia1_city_178">
				<city_name>Raymore</city_name>
				<city_population>19206</city_population>
				<city_population_density>421.8083041038111</city_population_density>
				<city_latitude>38.80416488647461</city_latitude>
				<city_longtitude>-94.461669921875</city_longtitude>
				<city_elevation>333.0</city_elevation>
			</city>
			<city id="dbpedia1_city_179">
				<city_name>Dallas</city_name>
				<city_population>1197816</city_population>
				<city_population_density>1407.1711839436075</city_population_density>
				<city_latitude>32.77583312988281</city_latitude>
				<city_longtitude>-96.79666900634766</city_longtitude>
				<city_elevation>131.064</city_elevation>
			</city>
			<city id="dbpedia1_city_180">
				<city_name>Alpharetta</city_name>
				<city_population>59397</city_population>
				<city_population_density>1032.1132705172795</city_population_density>
				<city_latitude>34.07333374023438</city_latitude>
				<city_longtitude>-84.28111267089844</city_longtitude>
				<city_elevation>346.0</city_elevation>
			</city>
			<city id="dbpedia1_city_181">
				<city_name>Long Branch</city_name>
				<city_population>30719</city_population>
				<city_population_density>2248.813412214622</city_population_density>
				<city_latitude>40.29537200927734</city_latitude>
				<city_longtitude>-73.98989868164062</city_longtitude>
				<city_elevation>7.0104</city_elevation>
			</city>
			<city id="dbpedia1_city_182">
				<city_name>Winona</city_name>
				<city_population>27592</city_population>
				<city_population_density>565.42330559270605</city_population_density>
				<city_latitude>44.04999923706055</city_latitude>
				<city_longtitude>-91.63333129882812</city_longtitude>
				<city_elevation>200.0</city_elevation>
			</city>
			<city id="dbpedia1_city_183">
				<city_name>Kingman</city_name>
				<city_population>28068</city_population>
				<city_population_density>258.586307787938</city_population_density>
				<city_latitude>35.20833206176758</city_latitude>
				<city_longtitude>-114.0258331298828</city_longtitude>
				<city_elevation>1016.0</city_elevation>
			</city>
			<city id="dbpedia1_city_184">
				<city_name>Kalamazoo</city_name>
				<city_population>74262</city_population>
				<city_population_density>1161.79069752711</city_population_density>
				<city_latitude>42.29000091552734</city_latitude>
				<city_longtitude>-85.58583068847656</city_longtitude>
				<city_elevation>239.0</city_elevation>
			</city>
			<city id="dbpedia1_city_185">
				<city_name>Caldwell</city_name>
				<city_population>46237</city_population>
				<city_population_density>809.28506215248335</city_population_density>
				<city_latitude>43.65833282470703</city_latitude>
				<city_longtitude>-116.6802749633789</city_longtitude>
				<city_elevation>723.9</city_elevation>
			</city>
			<city id="dbpedia1_city_186">
				<city_name>Bellingham</city_name>
				<city_population>80885</city_population>
				<city_population_density>1153.224268675216</city_population_density>
				<city_latitude>48.750139236450195</city_latitude>
				<city_longtitude>-122.47916412353515</city_longtitude>
				<city_elevation>22.0</city_elevation>
			</city>
			<city id="dbpedia1_city_187">
				<city_name>West Springfield</city_name>
				<city_population>28391</city_population>
				<city_population_density>639.5051275597042</city_population_density>
				<city_latitude>42.1069450378418</city_latitude>
				<city_longtitude>-72.62083435058594</city_longtitude>
				<city_elevation>19.812</city_elevation>
			</city>
			<city id="dbpedia1_city_188">
				<city_name>Clarksburg</city_name>
				<city_population>16578</city_population>
				<city_population_density>657.1922420275486</city_population_density>
				<city_latitude>39.282306671142575</city_latitude>
				<city_longtitude>-80.35072326660156</city_longtitude>
				<city_elevation>302.971</city_elevation>
			</city>
			<city id="dbpedia1_city_189">
				<city_name>Greenville</city_name>
				<city_population>90223</city_population>
				<city_population_density>912.8885820447338</city_population_density>
				<city_latitude>35.60166549682617</city_latitude>
				<city_longtitude>-77.37249755859375</city_longtitude>
				<city_elevation>17.0</city_elevation>
			</city>
			<city id="dbpedia1_city_190">
				<city_name>La Vergne</city_name>
				<city_population>32588</city_population>
				<city_population_density>290.95259844672075</city_population_density>
				<city_latitude>36.01333236694336</city_latitude>
				<city_longtitude>-86.56277465820312</city_longtitude>
				<city_elevation>182.88</city_elevation>
			</city>
			<city id="dbpedia1_city_191">
				<city_name>Bonita Springs</city_name>
				<city_population>43914</city_population>
				<city_population_density>383.512906113464</city_population_density>
				<city_latitude>26.349687576293945</city_latitude>
				<city_longtitude>-81.79088592529297</city_longtitude>
				<city_elevation>3.048</city_elevation>
			</city>
			<city id="dbpedia1_city_192">
				<city_name>Woburn</city_name>
				<city_population>38120</city_population>
				<city_population_density>1127.722082910376</city_population_density>
				<city_latitude>42.4818058013916</city_latitude>
				<city_longtitude>-71.15236282348633</city_longtitude>
				<city_elevation>30.48</city_elevation>
			</city>
			<city id="dbpedia1_city_193">
				<city_name>Brooklyn Park</city_name>
				<city_population>75781</city_population>
				<city_population_density>1122.310877225591</city_population_density>
				<city_latitude>45.09416580200195</city_latitude>
				<city_longtitude>-93.35610961914062</city_longtitude>
				<city_elevation>265.0</city_elevation>
			</city>
			<city id="dbpedia1_city_194">
				<city_name>West Linn</city_name>
				<city_population>25109</city_population>
				<city_population_density>1311.879652039834</city_population_density>
				<city_latitude>45.36527633666992</city_latitude>
				<city_longtitude>-122.64111328125</city_longtitude>
				<city_elevation>32.004</city_elevation>
			</city>
			<city id="dbpedia1_city_195">
				<city_name>Laurel</city_name>
				<city_population>18838</city_population>
				<city_population_density>464.1641943346253</city_population_density>
				<city_latitude>31.69750022888184</city_latitude>
				<city_longtitude>-89.13944244384766</city_longtitude>
				<city_elevation>82.0</city_elevation>
			</city>
			<city id="dbpedia1_city_196">
				<city_name>Tualatin</city_name>
				<city_population>26054</city_population>
				<city_population_density>1223.7947008580685</city_population_density>
				<city_latitude>45.374765396118165</city_latitude>
				<city_longtitude>-122.7700309753418</city_longtitude>
				<city_elevation>37.5</city_elevation>
			</city>
			<city id="dbpedia1_city_197">
				<city_name>Tiffin</city_name>
				<city_population>17963</city_population>
				<city_population_density>1025.9753278394935</city_population_density>
				<city_latitude>41.116943359375</city_latitude>
				<city_longtitude>-83.17888641357422</city_longtitude>
				<city_elevation>227.076</city_elevation>
			</city>
			<city id="dbpedia1_city_198">
				<city_name>Meridian</city_name>
				<city_population>75092</city_population>
				<city_population_density>1082.222175197238</city_population_density>
				<city_latitude>43.61416625976562</city_latitude>
				<city_longtitude>-116.3988876342773</city_longtitude>
				<city_elevation>794.004</city_elevation>
			</city>
			<city id="dbpedia1_city_199">
				<city_name>Terre Haute</city_name>
				<city_population>60785</city_population>
				<city_population_density>679.4812893014981</city_population_density>
				<city_latitude>39.46972274780273</city_latitude>
				<city_longtitude>-87.38972473144531</city_longtitude>
				<city_elevation>152.095</city_elevation>
			</city>
			<city id="dbpedia1_city_200">
				<city_name>New Brunswick</city_name>
				<city_population>55181</city_population>
				<city_population_density>4075.848826437476</city_population_density>
				<city_latitude>40.48667907714844</city_latitude>
				<city_longtitude>-74.44441223144531</city_longtitude>
				<city_elevation>18.8976</city_elevation>
			</city>
			<city id="dbpedia1_city_201">
				<city_name>Fort Wayne</city_name>
				<city_population>253691</city_population>
				<city_population_density>885.49334520062275</city_population_density>
				<city_latitude>41.080501556396485</city_latitude>
				<city_longtitude>-85.13916015625</city_longtitude>
				<city_elevation>247.0</city_elevation>
			</city>
			<city id="dbpedia1_city_202">
				<city_name>Athens</city_name>
				<city_population>23832</city_population>
				<city_population_density>936.0830365851529</city_population_density>
				<city_latitude>39.32916641235352</city_latitude>
				<city_longtitude>-82.09610748291016</city_longtitude>
				<city_elevation>219.151</city_elevation>
			</city>
			<city id="dbpedia1_city_203">
				<city_name>Odessa</city_name>
				<city_population>110720</city_population>
				<city_population_density>879</city_population_density>
				<city_latitude>31.86333274841309</city_latitude>
				<city_longtitude>-102.3655548095703</city_longtitude>
				<city_elevation>883.92</city_elevation>
			</city>
			<city id="dbpedia1_city_204">
				<city_name>Hudson</city_name>
				<city_population>22262</city_population>
				<city_population_density>335.7772185342555</city_population_density>
				<city_latitude>41.239782333374025</city_latitude>
				<city_longtitude>-81.4408073425293</city_longtitude>
				<city_elevation>325.0</city_elevation>
			</city>
			<city id="dbpedia1_city_205">
				<city_name>Scottsdale</city_name>
				<city_population>217385</city_population>
				<city_population_density>503.6202686648002</city_population_density>
				<city_latitude>33.5</city_latitude>
				<city_longtitude>-111.9333343505859</city_longtitude>
				<city_elevation>380.0</city_elevation>
			</city>
			<city id="dbpedia1_city_206">
				<city_name>Bellevue</city_name>
				<city_population>122363</city_population>
				<city_population_density>1477.7837008026785</city_population_density>
				<city_latitude>47.59999847412109</city_latitude>
				<city_longtitude>-122.1833305358887</city_longtitude>
				<city_elevation>25.908</city_elevation>
			</city>
			<city id="dbpedia1_city_207">
				<city_name>Hendersonville</city_name>
				<city_population>54068</city_population>
				<city_population_density>603.09044741455475</city_population_density>
				<city_latitude>36.30004119873047</city_latitude>
				<city_longtitude>-86.60610961914062</city_longtitude>
				<city_elevation>147.0</city_elevation>
			</city>
			<city id="dbpedia1_city_208">
				<city_name>Sikeston</city_name>
				<city_population>16318</city_population>
				<city_population_density>363.72342178141915</city_population_density>
				<city_latitude>36.87944412231445</city_latitude>
				<city_longtitude>-89.58528137207031</city_longtitude>
				<city_elevation>99.9744</city_elevation>
			</city>
			<city id="dbpedia1_city_209">
				<city_name>Phenix City</city_name>
				<city_population>37498</city_population>
				<city_population_density>454.5503150454128</city_population_density>
				<city_latitude>32.4727783203125</city_latitude>
				<city_longtitude>-85.01999664306641</city_longtitude>
				<city_elevation>74.0</city_elevation>
			</city>
			<city id="dbpedia1_city_210">
				<city_name>Middletown</city_name>
				<city_population>48694</city_population>
				<city_population_density>717.88987168898485</city_population_density>
				<city_latitude>39.5</city_latitude>
				<city_longtitude>-84.38333129882812</city_longtitude>
				<city_elevation>199.949</city_elevation>
			</city>
			<city id="dbpedia1_city_211">
				<city_name>Alabaster</city_name>
				<city_population>31342</city_population>
				<city_population_density>424.9700850398028</city_population_density>
				<city_latitude>33.23110961914062</city_latitude>
				<city_longtitude>-86.82374954223633</city_longtitude>
				<city_elevation>153.01</city_elevation>
			</city>
			<city id="dbpedia1_city_212">
				<city_name>Big Spring</city_name>
				<city_population>25233</city_population>
				<city_population_density>509.8</city_population_density>
				<city_latitude>32.24333190917969</city_latitude>
				<city_longtitude>-101.4752807617188</city_longtitude>
				<city_elevation>744.017</city_elevation>
			</city>
			<city id="dbpedia1_city_213">
				<city_name>Shelbyville</city_name>
				<city_population>20598</city_population>
				<city_population_density>427.3</city_population_density>
				<city_latitude>35.48888778686523</city_latitude>
				<city_longtitude>-86.45222473144531</city_longtitude>
				<city_elevation>230.0</city_elevation>
			</city>
			<city id="dbpedia1_city_214">
				<city_name>Lakewood</city_name>
				<city_population>58163</city_population>
				<city_population_density>1307.9105310312675</city_population_density>
				<city_latitude>47.16666793823242</city_latitude>
				<city_longtitude>-122.533332824707</city_longtitude>
				<city_elevation>79.8576</city_elevation>
			</city>
			<city id="dbpedia1_city_215">
				<city_name>Norwalk</city_name>
				<city_population>17012</city_population>
				<city_population_density>740.50266493427845</city_population_density>
				<city_latitude>41.24305725097656</city_latitude>
				<city_longtitude>-82.61138916015625</city_longtitude>
				<city_elevation>219.151</city_elevation>
			</city>
			<city id="dbpedia1_city_216">
				<city_name>Manhattan</city_name>
				<city_population>1626159</city_population>
				<city_population_density>27345.91704006386</city_population_density>
				<city_latitude>40.75930595397949</city_latitude>
				<city_longtitude>-73.97694396972656</city_longtitude>
			</city>
			<city id="dbpedia1_city_217">
				<city_name>Westlake</city_name>
				<city_population>32729</city_population>
				<city_population_density>793.2927474706547</city_population_density>
				<city_latitude>41.45444488525391</city_latitude>
				<city_longtitude>-81.92861175537109</city_longtitude>
				<city_elevation>216.103</city_elevation>
			</city>
			<city id="dbpedia1_city_218">
				<city_name>St. Michael</city_name>
				<city_population>16399</city_population>
				<city_population_density>193.4185907148827</city_population_density>
				<city_latitude>45.20000076293945</city_latitude>
				<city_longtitude>-93.66666412353516</city_longtitude>
				<city_elevation>294.0</city_elevation>
			</city>
			<city id="dbpedia1_city_219">
				<city_name>Marion</city_name>
				<city_population>34768</city_population>
				<city_population_density>836.38724791732315</city_population_density>
				<city_latitude>42.03777694702148</city_latitude>
				<city_longtitude>-91.676387786865235</city_longtitude>
				<city_elevation>260.0</city_elevation>
			</city>
			<city id="dbpedia1_city_220">
				<city_name>Twinsburg</city_name>
				<city_population>18795</city_population>
				<city_population_density>526.9954180972922</city_population_density>
				<city_latitude>41.32416534423828</city_latitude>
				<city_longtitude>-81.45277404785156</city_longtitude>
				<city_elevation>305.0</city_elevation>
			</city>
			<city id="dbpedia1_city_221">
				<city_name>Chelsea</city_name>
				<city_population>35177</city_population>
				<city_population_density>6173.580464014439</city_population_density>
				<city_latitude>42.39166641235352</city_latitude>
				<city_longtitude>-71.03333282470703</city_longtitude>
				<city_elevation>3.048</city_elevation>
			</city>
			<city id="dbpedia1_city_222">
				<city_name>Plainview</city_name>
				<city_population>22194</city_population>
				<city_population_density>623.7857994986524</city_population_density>
				<city_latitude>34.19111251831055</city_latitude>
				<city_longtitude>-101.7188873291016</city_longtitude>
				<city_elevation>1026.0</city_elevation>
			</city>
			<city id="dbpedia1_city_223">
				<city_name>Seymour</city_name>
				<city_population>17503</city_population>
				<city_population_density>591.7893891990034</city_population_density>
				<city_latitude>38.95639038085938</city_latitude>
				<city_longtitude>-85.88999938964844</city_longtitude>
				<city_elevation>184.099</city_elevation>
			</city>
			<city id="dbpedia1_city_224">
				<city_name>Kingsport</city_name>
				<city_population>48205</city_population>
				<city_population_density>393.39974466944905</city_population_density>
				<city_latitude>36.53333282470703</city_latitude>
				<city_longtitude>-82.55000305175781</city_longtitude>
				<city_elevation>369.113</city_elevation>
			</city>
			<city id="dbpedia1_city_225">
				<city_name>Nashua</city_name>
				<city_population>86494</city_population>
				<city_population_density>1090.5</city_population_density>
				<city_latitude>42.754268646240235</city_latitude>
				<city_longtitude>-71.47263336181641</city_longtitude>
				<city_elevation>46.0</city_elevation>
			</city>
			<city id="dbpedia1_city_226">
				<city_name>Newport</city_name>
				<city_population>24672</city_population>
				<city_population_density>1239.8</city_population_density>
				<city_latitude>41.48805618286133</city_latitude>
				<city_longtitude>-71.3125</city_longtitude>
				<city_elevation>9.144</city_elevation>
			</city>
			<city id="dbpedia1_city_227">
				<city_name>Coralville</city_name>
				<city_population>18907</city_population>
				<city_population_density>607.8203140966863</city_population_density>
				<city_latitude>41.68833160400391</city_latitude>
				<city_longtitude>-91.586669921875</city_longtitude>
				<city_elevation>207.874</city_elevation>
			</city>
			<city id="dbpedia1_city_228">
				<city_name>Covington</city_name>
				<city_population>40640</city_population>
				<city_population_density>1146.666721550156</city_population_density>
				<city_latitude>39.06499862670898</city_latitude>
				<city_longtitude>-84.50971984863281</city_longtitude>
				<city_elevation>155.0</city_elevation>
			</city>
			<city id="dbpedia1_city_229">
				<city_name>Oxford</city_name>
				<city_population>21232</city_population>
				<city_population_density>267.9</city_population_density>
				<city_latitude>33.59694290161133</city_latitude>
				<city_longtitude>-83.33860778808594</city_longtitude>
				<city_elevation>200.0</city_elevation>
			</city>
			<city id="dbpedia1_city_230">
				<city_name>Fayetteville</city_name>
				<city_population>73580</city_population>
				<city_population_density>527.5313792165439</city_population_density>
				<city_latitude>36.07638931274414</city_latitude>
				<city_longtitude>-94.16083526611328</city_longtitude>
				<city_elevation>426.72</city_elevation>
			</city>
			<city id="dbpedia1_city_231">
				<city_name>West Palm Beach</city_name>
				<city_population>103038</city_population>
				<city_population_density>707.81706916756865</city_population_density>
				<city_latitude>26.7097225189209</city_latitude>
				<city_longtitude>-80.06416320800781</city_longtitude>
				<city_elevation>3.9624</city_elevation>
			</city>
			<city id="dbpedia1_city_232">
				<city_name>Fort Thomas</city_name>
				<city_population>16325</city_population>
				<city_population_density>1123.4900304634045</city_population_density>
				<city_latitude>39.07611083984375</city_latitude>
				<city_longtitude>-84.45138549804688</city_longtitude>
				<city_elevation>262.128</city_elevation>
			</city>
			<city id="dbpedia1_city_233">
				<city_name>Richmond</city_name>
				<city_population>103701</city_population>
				<city_population_density>1331.97522653973</city_population_density>
				<city_latitude>37.93583297729492</city_latitude>
				<city_longtitude>-122.3477783203125</city_longtitude>
				<city_elevation>14.0208</city_elevation>
			</city>
			<city id="dbpedia1_city_234">
				<city_name>Fernley</city_name>
				<city_population>19368</city_population>
				<city_population_density>61.2</city_population_density>
				<city_latitude>39.59860992431641</city_latitude>
				<city_longtitude>-119.2149963378906</city_longtitude>
				<city_elevation>1267.97</city_elevation>
			</city>
			<city id="dbpedia1_city_235">
				<city_name>Greenville</city_name>
				<city_population>34400</city_population>
				<city_population_density>643.41233038789415</city_population_density>
				<city_latitude>33.39861297607422</city_latitude>
				<city_longtitude>-91.04833221435547</city_longtitude>
				<city_elevation>39.9288</city_elevation>
			</city>
			<city id="dbpedia1_city_236">
				<city_name>North Canton</city_name>
				<city_population>17488</city_population>
				<city_population_density>1055.0120741086165</city_population_density>
				<city_latitude>40.875</city_latitude>
				<city_longtitude>-81.40110778808594</city_longtitude>
				<city_elevation>353.873</city_elevation>
			</city>
			<city id="dbpedia1_city_237">
				<city_name>Anderson</city_name>
				<city_population>56129</city_population>
				<city_population_density>523.8817043551953</city_population_density>
				<city_latitude>40.100019454956055</city_latitude>
				<city_longtitude>-85.68145751953125</city_longtitude>
				<city_elevation>267.919</city_elevation>
			</city>
			<city id="dbpedia1_city_238">
				<city_name>Mercer Island</city_name>
				<city_population>22699</city_population>
				<city_population_density>1386.7122563105245</city_population_density>
				<city_latitude>47.57749938964844</city_latitude>
				<city_longtitude>-122.2119979858398</city_longtitude>
				<city_elevation>103.022</city_elevation>
			</city>
			<city id="dbpedia1_city_239">
				<city_name>Oxford</city_name>
				<city_population>21232</city_population>
				<city_population_density>267.9</city_population_density>
				<city_latitude>33.59694290161133</city_latitude>
				<city_longtitude>-83.33860778808594</city_longtitude>
				<city_elevation>199.949</city_elevation>
			</city>
			<city id="dbpedia1_city_240">
				<city_name>Laurinburg</city_name>
				<city_population>15962</city_population>
				<city_population_density>494.2939916830196</city_population_density>
				<city_latitude>34.76472091674805</city_latitude>
				<city_longtitude>-79.47027587890625</city_longtitude>
				<city_elevation>68.8848</city_elevation>
			</city>
			<city id="dbpedia1_city_241">
				<city_name>Hackensack</city_name>
				<city_population>43010</city_population>
				<city_population_density>3972.995605700884</city_population_density>
				<city_latitude>40.88939666748047</city_latitude>
				<city_longtitude>-74.04570007324219</city_longtitude>
				<city_elevation>6.096</city_elevation>
			</city>
			<city id="dbpedia1_city_242">
				<city_name>Galveston</city_name>
				<city_population>47743</city_population>
				<city_population_density>478.9</city_population_density>
				<city_latitude>29.2811107635498</city_latitude>
				<city_longtitude>-94.82583618164062</city_longtitude>
				<city_elevation>2.0</city_elevation>
			</city>
			<city id="dbpedia1_city_243">
				<city_name>Des Moines</city_name>
				<city_population>29673</city_population>
				<city_population_density>1762.59748198106</city_population_density>
				<city_latitude>47.3941650390625</city_latitude>
				<city_longtitude>-122.3180541992188</city_longtitude>
				<city_elevation>28.0</city_elevation>
			</city>
			<city id="dbpedia1_city_244">
				<city_name>Miami Gardens</city_name>
				<city_population>107167</city_population>
				<city_population_density>2269.662928775914</city_population_density>
				<city_latitude>25.9421215057373</city_latitude>
				<city_longtitude>-80.26992034912109</city_longtitude>
				<city_elevation>2.1336</city_elevation>
			</city>
			<city id="dbpedia1_city_245">
				<city_name>Olive Branch</city_name>
				<city_population>30675</city_population>
				<city_population_density>327.01426414272585</city_population_density>
				<city_latitude>34.961666107177735</city_latitude>
				<city_longtitude>-89.84166717529297</city_longtitude>
				<city_elevation>117.958</city_elevation>
			</city>
			<city id="dbpedia1_city_246">
				<city_name>Omaha</city_name>
				<city_population>408958</city_population>
				<city_population_density>1242.4190679868685</city_population_density>
				<city_latitude>41.25</city_latitude>
				<city_longtitude>-96</city_longtitude>
				<city_elevation>332.232</city_elevation>
			</city>
			<city id="dbpedia1_city_247">
				<city_name>Bowie</city_name>
				<city_population>54727</city_population>
				<city_population_density>1146.5151798958965</city_population_density>
				<city_latitude>38.9647216796875</city_latitude>
				<city_longtitude>-76.74444580078125</city_longtitude>
				<city_elevation>46.9392</city_elevation>
			</city>
			<city id="dbpedia1_city_248">
				<city_name>Winchester</city_name>
				<city_population>18368</city_population>
				<city_population_density>905</city_population_density>
				<city_latitude>37.99472045898438</city_latitude>
				<city_longtitude>-84.18416595458984</city_longtitude>
				<city_elevation>302.971</city_elevation>
			</city>
			<city id="dbpedia1_city_249">
				<city_name>Roseville</city_name>
				<city_population>47299</city_population>
				<city_population_density>1857.8038781293435</city_population_density>
				<city_latitude>42.50027847290039</city_latitude>
				<city_longtitude>-82.93791961669922</city_longtitude>
				<city_elevation>187.0</city_elevation>
			</city>
			<city id="dbpedia1_city_250">
				<city_name>Groves</city_name>
				<city_population>16144</city_population>
				<city_population_density>1172.4882124229225</city_population_density>
				<city_latitude>29.947167396545415</city_latitude>
				<city_longtitude>-93.91583251953125</city_longtitude>
				<city_elevation>3.048</city_elevation>
			</city>
			<city id="dbpedia1_city_251">
				<city_name>Huntsville</city_name>
				<city_population>180105</city_population>
				<city_population_density>331.14</city_population_density>
				<city_latitude>34.71500015258789</city_latitude>
				<city_longtitude>-86.58416748046875</city_longtitude>
				<city_elevation>193.0</city_elevation>
			</city>
			<city id="dbpedia1_city_252">
				<city_name>West Fargo</city_name>
				<city_population>25830</city_population>
				<city_population_density>690.6797706003636</city_population_density>
				<city_latitude>46.87166595458984</city_latitude>
				<city_longtitude>-96.89499664306641</city_longtitude>
				<city_elevation>273.0</city_elevation>
			</city>
			<city id="dbpedia1_city_253">
				<city_name>Weirton</city_name>
				<city_population>19746</city_population>
				<city_population_density>422.3978807227179</city_population_density>
				<city_latitude>40.41666793823242</city_latitude>
				<city_longtitude>-80.58333587646484</city_longtitude>
				<city_elevation>230.0</city_elevation>
			</city>
			<city id="dbpedia1_city_254">
				<city_name>Racine</city_name>
				<city_population>78860</city_population>
				<city_population_density>1966.910113131391</city_population_density>
				<city_latitude>42.72611236572266</city_latitude>
				<city_longtitude>-87.80583190917969</city_longtitude>
				<city_elevation>188.0</city_elevation>
			</city>
			<city id="dbpedia1_city_255">
				<city_name>Portland</city_name>
				<city_population>15099</city_population>
				<city_population_density>820.6800689909844</city_population_density>
				<city_latitude>27.88305473327637</city_latitude>
				<city_longtitude>-97.320556640625</city_longtitude>
				<city_elevation>13.1064</city_elevation>
			</city>
			<city id="dbpedia1_city_256">
				<city_name>South Bend</city_name>
				<city_population>101168</city_population>
				<city_population_density>942.1139385297111</city_population_density>
				<city_latitude>41.67250061035156</city_latitude>
				<city_longtitude>-86.25527954101562</city_longtitude>
				<city_elevation>211.0</city_elevation>
			</city>
			<city id="dbpedia1_city_257">
				<city_name>Orange</city_name>
				<city_population>18643</city_population>
				<city_population_density>358.4979271033305</city_population_density>
				<city_latitude>30.10916709899902</city_latitude>
				<city_longtitude>-93.75916290283203</city_longtitude>
				<city_elevation>2.1336</city_elevation>
			</city>
			<city id="dbpedia1_city_258">
				<city_name>Crawfordsville</city_name>
				<city_population>15915</city_population>
				<city_population_density>671.5237421764381</city_population_density>
				<city_latitude>40.03888702392578</city_latitude>
				<city_longtitude>-86.89666748046875</city_longtitude>
				<city_elevation>239.878</city_elevation>
			</city>
			<city id="dbpedia1_city_259">
				<city_name>Roseville</city_name>
				<city_population>47299</city_population>
				<city_population_density>1857.8038781293435</city_population_density>
				<city_latitude>42.50027847290039</city_latitude>
				<city_longtitude>-82.93791961669922</city_longtitude>
				<city_elevation>187.147</city_elevation>
			</city>
			<city id="dbpedia1_city_260">
				<city_name>Hialeah Gardens</city_name>
				<city_population>21744</city_population>
				<city_population_density>2583.062050864817</city_population_density>
				<city_latitude>25.878337860107425</city_latitude>
				<city_longtitude>-80.34806442260742</city_longtitude>
				<city_elevation>2.1336</city_elevation>
			</city>
			<city id="dbpedia1_city_261">
				<city_name>Marietta</city_name>
				<city_population>56579</city_population>
				<city_population_density>946.5</city_population_density>
				<city_latitude>33.95333480834961</city_latitude>
				<city_longtitude>-84.54055786132812</city_longtitude>
				<city_elevation>344.119</city_elevation>
			</city>
			<city id="dbpedia1_city_262">
				<city_name>San Benito</city_name>
				<city_population>24250</city_population>
				<city_population_density>822.28740906355915</city_population_density>
				<city_latitude>26.13666725158691</city_latitude>
				<city_longtitude>-97.63583374023438</city_longtitude>
				<city_elevation>11.0</city_elevation>
			</city>
			<city id="dbpedia1_city_263">
				<city_name>West Jordan</city_name>
				<city_population>108383</city_population>
				<city_population_density>1296.1508509335545</city_population_density>
				<city_latitude>40.60638809204102</city_latitude>
				<city_longtitude>-111.9761123657227</city_longtitude>
				<city_elevation>1333.0</city_elevation>
			</city>
			<city id="dbpedia1_city_264">
				<city_name>Amsterdam (city)</city_name>
				<city_population>18620</city_population>
				<city_population_density>1226.376286178371</city_population_density>
				<city_latitude>42.95000076293945</city_latitude>
				<city_longtitude>-74.18333435058594</city_longtitude>
				<city_elevation>110.0</city_elevation>
			</city>
			<city id="dbpedia1_city_265">
				<city_name>Portland</city_name>
				<city_population>583776</city_population>
				<city_population_density>1689.2177769195275</city_population_density>
				<city_latitude>45.539365768432615</city_latitude>
				<city_longtitude>-122.7302436828613</city_longtitude>
				<city_elevation>3028.49</city_elevation>
			</city>
			<city id="dbpedia1_city_266">
				<city_name>Lebanon</city_name>
				<city_population>25477</city_population>
				<city_population_density>2254</city_population_density>
				<city_latitude>40.34166717529297</city_latitude>
				<city_longtitude>-76.42082977294922</city_longtitude>
			</city>
			<city id="dbpedia1_city_267">
				<city_name>Rexburg</city_name>
				<city_population>25484</city_population>
				<city_population_density>1008.1756730850905</city_population_density>
				<city_latitude>43.81666564941406</city_latitude>
				<city_longtitude>-111.783332824707</city_longtitude>
				<city_elevation>1482.85</city_elevation>
			</city>
			<city id="dbpedia1_city_268">
				<city_name>Parma Heights</city_name>
				<city_population>20718</city_population>
				<city_population_density>1909.110366564489</city_population_density>
				<city_latitude>41.38611221313477</city_latitude>
				<city_longtitude>-81.76333618164062</city_longtitude>
				<city_elevation>260.909</city_elevation>
			</city>
			<city id="dbpedia1_city_269">
				<city_name>Phenix City</city_name>
				<city_population>37498</city_population>
				<city_population_density>454.5503150454128</city_population_density>
				<city_latitude>32.4727783203125</city_latitude>
				<city_longtitude>-85.01999664306641</city_longtitude>
				<city_elevation>74.0664</city_elevation>
			</city>
			<city id="dbpedia1_city_270">
				<city_name>Auburn</city_name>
				<city_population>58582</city_population>
				<city_population_density>368.65</city_population_density>
				<city_latitude>32.5977783203125</city_latitude>
				<city_longtitude>-85.4808349609375</city_longtitude>
				<city_elevation>214.0</city_elevation>
			</city>
			<city id="dbpedia1_city_271">
				<city_name>Pasco</city_name>
				<city_population>59781</city_population>
				<city_population_density>756.78011537159695</city_population_density>
				<city_latitude>46.23860931396484</city_latitude>
				<city_longtitude>-119.1086120605469</city_longtitude>
				<city_elevation>117.958</city_elevation>
			</city>
			<city id="dbpedia1_city_272">
				<city_name>Lebanon</city_name>
				<city_population>15792</city_population>
				<city_population_density>391.87754035236415</city_population_density>
				<city_latitude>40.05222320556641</city_latitude>
				<city_longtitude>-86.47166442871094</city_longtitude>
				<city_elevation>286.0</city_elevation>
			</city>
			<city id="dbpedia1_city_273">
				<city_name>Shawnee</city_name>
				<city_population>62209</city_population>
				<city_population_density>573.9204293366729</city_population_density>
				<city_latitude>39.01277923583984</city_latitude>
				<city_longtitude>-94.76583099365234</city_longtitude>
				<city_elevation>324.917</city_elevation>
			</city>
			<city id="dbpedia1_city_274">
				<city_name>Aiken</city_name>
				<city_population>29494</city_population>
				<city_population_density>550.8</city_population_density>
				<city_latitude>33.54944610595703</city_latitude>
				<city_longtitude>-81.72055816650391</city_longtitude>
				<city_elevation>157.0</city_elevation>
			</city>
			<city id="dbpedia1_city_275">
				<city_name>Farmington</city_name>
				<city_population>20750</city_population>
				<city_population_density>601.4849712887111</city_population_density>
				<city_latitude>40.98666763305664</city_latitude>
				<city_longtitude>-111.899169921875</city_longtitude>
				<city_elevation>1312.0</city_elevation>
			</city>
			<city id="dbpedia1_city_276">
				<city_name>Mauldin</city_name>
				<city_population>15224</city_population>
				<city_population_density>682.29056218017805</city_population_density>
				<city_latitude>34.78083419799805</city_latitude>
				<city_longtitude>-82.30055236816406</city_longtitude>
				<city_elevation>290.0</city_elevation>
			</city>
			<city id="dbpedia1_city_277">
				<city_name>North Augusta</city_name>
				<city_population>21348</city_population>
				<city_population_density>411.5</city_population_density>
				<city_latitude>33.51305389404297</city_latitude>
				<city_longtitude>-81.96277618408203</city_longtitude>
				<city_elevation>117.958</city_elevation>
			</city>
			<city id="dbpedia1_city_278">
				<city_name>West Jordan</city_name>
				<city_population>108383</city_population>
				<city_population_density>1296.1508509335545</city_population_density>
				<city_latitude>40.60638809204102</city_latitude>
				<city_longtitude>-111.9761123657227</city_longtitude>
				<city_elevation>1332.89</city_elevation>
			</city>
			<city id="dbpedia1_city_279">
				<city_name>Kalamazoo</city_name>
				<city_population>74262</city_population>
				<city_population_density>1161.79069752711</city_population_density>
				<city_latitude>42.29000091552734</city_latitude>
				<city_longtitude>-85.58583068847656</city_longtitude>
				<city_elevation>238.963</city_elevation>
			</city>
			<city id="dbpedia1_city_280">
				<city_name>Taylor</city_name>
				<city_population>63131</city_population>
				<city_population_density>1032.8116370505215</city_population_density>
				<city_latitude>42.2408332824707</city_latitude>
				<city_longtitude>-83.26972198486328</city_longtitude>
				<city_elevation>187.147</city_elevation>
			</city>
			<city id="dbpedia1_city_281">
				<city_name>Billings</city_name>
				<city_population>104170</city_population>
				<city_population_density>926.5146749271537</city_population_density>
				<city_latitude>45.78666687011719</city_latitude>
				<city_longtitude>-108.537223815918</city_longtitude>
				<city_elevation>951.89</city_elevation>
			</city>
			<city id="dbpedia1_city_282">
				<city_name>Monroe</city_name>
				<city_population>36397</city_population>
				<city_population_density>412.1320271220305</city_population_density>
				<city_latitude>34.98888778686523</city_latitude>
				<city_longtitude>-80.54972076416016</city_longtitude>
				<city_elevation>180.0</city_elevation>
			</city>
			<city id="dbpedia1_city_283">
				<city_name>Columbus</city_name>
				<city_population>787033</city_population>
				<city_population_density>1399.217111278912</city_population_density>
				<city_latitude>39.98333358764648</city_latitude>
				<city_longtitude>-82.98332977294922</city_longtitude>
				<city_elevation>274.93</city_elevation>
			</city>
			<city id="dbpedia1_city_284">
				<city_name>Manitowoc</city_name>
				<city_population>33736</city_population>
				<city_population_density>738.8225452934122</city_population_density>
				<city_latitude>44.09638977050781</city_latitude>
				<city_longtitude>-87.67500305175781</city_longtitude>
			</city>
			<city id="dbpedia1_city_285">
				<city_name>Eugene</city_name>
